{"address": "景山前街4号", "uid": "06d2dffda107b0ef89f15db6", "subway": [{"distance_walking": 1854, "line": "地铁1号线", "duration_walking": 1477, "lng": "116.407851", "lat": "39.91408", "name": "天安门东"}], "tag": "旅游景点;博物馆", "lng": 116.403414, "id": "1100001", "name": "故宫博物院", "lat": 39.924091, "level": 5}
{"address": "天坛内东里7号天坛公园管理处", "uid": "45ef9a2b5508cbfda2d230e6", "subway": [{"distance_walking": 1506, "line": "地铁5号线", "duration_walking": 1202, "lng": "116.427392", "lat": "39.888497", "name": "天坛东门"}], "tag": "旅游景点;风景区", "lng": 116.417115, "id": "1100002", "name": "天坛公园", "lat": 39.886376, "level": 5}
{"address": "柳荫街甲14号", "uid": "bb1d38e4ec95cc4d0c0a7002", "subway": [{"distance_walking": 1067, "line": "地铁6号线", "duration_walking": 850, "lng": "116.39289", "lat": "39.939493", "name": "北海北"}], "tag": "旅游景点;文物古迹", "lng": 116.392805, "id": "1100003", "name": "恭王府", "lat": 39.942181, "level": 5}
{"address": "朝阳区北辰东路15号", "uid": "03d7e5971f3675483c9a5e9e", "subway": [{"distance_walking": 1758, "line": "地铁8号线", "duration_walking": 1401, "lng": "116.399036", "lat": "40.016211", "name": "森林公园南门"}], "tag": "旅游景点;风景区", "lng": 116.396797, "id": "1100004", "name": "奥林匹克森林公园", "lat": 40.02523, "level": 5}
{"address": "新建宫门路19号", "uid": "2a7a25ecf9cf13636d3e1bad", "subway": [{"distance_walking": 5686, "line": "西郊线", "duration_walking": 4541, "lng": "116.269675", "lat": "39.991999", "name": "颐和园西门"}], "tag": "旅游景点;文物古迹", "lng": 116.274853, "id": "1100005", "name": "颐和园", "lat": 39.998547, "level": 5}
{"address": "十三陵特区办事处", "uid": "0a46dc0f83a2265e30621266", "subway": [{"distance_walking": 2210, "line": "地铁昌平线", "duration_walking": 1765, "lng": "116.214346", "lat": "40.245742", "name": "十三陵景区"}], "tag": "旅游景点;文物古迹", "lng": 116.227731, "id": "1100006", "name": "明十三陵", "lat": 40.255906, "level": 5}
{"address": "渤海镇慕田峪村", "uid": "2fd2beabe34980517adbd221", "tag": "旅游景点;风景区", "lng": 116.569453, "id": "1100007", "name": "慕田峪长城国家级旅游景区", "lat": 40.437832, "level": 5}
{"address": "八达岭特区办事处", "uid": "2fd2beabe34a80517adbd220", "tag": "旅游景点;文物古迹", "lng": 116.016033, "id": "1100008", "name": "八达岭长城", "lat": 40.364233, "level": 5}
{"address": "国子监街13号/15号", "uid": "41572e00530f08b4b45f1ed2", "subway": [{"distance_walking": 821, "line": "地铁2号线;地铁5号线", "duration_walking": 655, "lng": "116.42312", "lat": "39.955113", "name": "雍和宫"}], "tag": "旅游景点;博物馆", "lng": 116.419671, "id": "1100009", "name": "孔庙和国子监博物馆", "lat": 39.953084, "level": 4}
{"address": "前门东大街20号", "uid": "b8f048a515cf25583a04b1ec", "subway": [{"distance_walking": 526, "line": "地铁2号线", "duration_walking": 417, "lng": "116.404276", "lat": "39.906534", "name": "前门"}], "tag": "文化传媒;展览馆", "lng": 116.407688, "id": "1100010", "name": "北京市规划展览馆", "lat": 39.906197, "level": 4}
{"address": "龙潭路8号", "uid": "090059e354c3dd9114b54b97", "subway": [{"distance_walking": 2124, "line": "14号线东段", "duration_walking": 1691, "lng": "116.446824", "lat": "39.871696", "name": "方庄(地铁站)"}], "tag": "旅游景点;风景区", "lng": 116.448672, "id": "1100011", "name": "龙潭公园", "lat": 39.884377, "level": 4}
{"address": "崇文门东大街东便门9号", "uid": "6ee01020b9c09aef52e5c5d1", "subway": [{"distance_walking": 1441, "line": "地铁2号线", "duration_walking": 1150, "lng": "116.433608", "lat": "39.911127", "name": "北京站"}], "tag": "旅游景点;文物古迹", "lng": 116.439712, "id": "1100012", "name": "明城墙遗址公园", "lat": 39.906996, "level": 4}
{"address": "中华路4号", "uid": "e2c734e489d8d15d15a190d1", "subway": [{"distance_walking": 1491, "line": "地铁1号线", "duration_walking": 1188, "lng": "116.39805", "lat": "39.913776", "name": "天安门西"}], "tag": "旅游景点;风景区", "lng": 116.400582, "id": "1100013", "name": "中山公园", "lat": 39.916702, "level": 4}
{"address": "安定门外大街200号", "uid": "26d62eb4ba8e27176240a90d", "subway": [{"distance_walking": 1066, "line": "地铁2号线;地铁5号线", "duration_walking": 849, "lng": "116.42312", "lat": "39.955113", "name": "雍和宫"}], "tag": "旅游景点;风景区", "lng": 116.421358, "id": "1100014", "name": "地坛公园", "lat": 39.959903, "level": 4}
{"address": "羊房胡同甲23号", "uid": "c21db9e5111538fe00ff2d32", "subway": [{"distance_walking": 1807, "line": "地铁6号线", "duration_walking": 1441, "lng": "116.39289", "lat": "39.939493", "name": "北海北"}], "tag": "旅游景点;风景区", "lng": 116.391656, "id": "1100015", "name": "什刹海公园", "lat": 39.948203, "level": 4}
{"address": "文津街1号", "uid": "49d959381b59a043c61e5102", "subway": [{"distance_walking": 1253, "line": "地铁6号线", "duration_walking": 1000, "lng": "116.39289", "lat": "39.939493", "name": "北海北"}], "tag": "旅游景点;风景区", "lng": 116.395486, "id": "1100016", "name": "北海公园", "lat": 39.932913, "level": 4}
{"address": "西直门外大街137号", "uid": "4bb049d91598944799005000", "subway": [{"distance_walking": 877, "line": "地铁4号线大兴线", "duration_walking": 695, "lng": "116.345204", "lat": "39.943923", "name": "动物园"}], "tag": "旅游景点;动物园", "lng": 116.343376, "id": "1100017", "name": "北京动物园", "lat": 39.947735, "level": 4}
{"address": "高梁桥斜街乙18号", "uid": "f446091859ff806bb11e363b", "subway": [{"distance_walking": 1173, "line": "地铁4号线大兴线", "duration_walking": 931, "lng": "116.345204", "lat": "39.943923", "name": "动物园"}], "tag": "旅游景点;水族馆", "lng": 116.347634, "id": "1100018", "name": "北京海洋馆", "lat": 39.950257, "level": 4}
{"address": "景山西街44号", "uid": "4b622bba5f9b4d2781a12e0a", "subway": [{"distance_walking": 1638, "line": "地铁6号线;地铁8号线", "duration_walking": 1304, "lng": "116.409683", "lat": "39.93984", "name": "南锣鼓巷"}], "tag": "旅游景点;风景区", "lng": 116.402926, "id": "1100019", "name": "景山公园", "lat": 39.932216, "level": 4}
{"address": "复兴门外大街16号", "uid": "a5097bfa3a635763f03cba06", "subway": [{"distance_walking": 469, "line": "北京市西城区复兴门外大街22号", "duration_walking": 375, "lng": "116.344505", "lat": "39.912511", "name": "木樨地地铁站"}], "tag": "旅游景点;博物馆", "lng": 116.349191, "id": "1100020", "name": "首都博物馆", "lat": 39.912294, "level": 4}
{"address": "太平街19号", "uid": "fa01e9378b06f14a774ff1f0", "subway": [{"distance_walking": 1243, "line": "地铁4号线大兴线", "duration_walking": 991, "lng": "116.380902", "lat": "39.884625", "name": "陶然亭"}], "tag": "旅游景点;风景区", "lng": 116.38836, "id": "1100021", "name": "陶然亭公园", "lat": 39.880335, "level": 4}
{"address": "西直门外大街138号", "uid": "c07eeb26458765a89ff77916", "subway": [{"distance_walking": 284, "line": "地铁4号线大兴线", "duration_walking": 227, "lng": "116.345204", "lat": "39.943923", "name": "动物园"}], "tag": "教育培训;科技馆", "lng": 116.343367, "id": "1100022", "name": "北京天文馆", "lat": 39.943018, "level": 4}
{"address": "东四环小武基北路", "uid": "91c13f93bcdcccfa20f0179a", "subway": [{"distance_walking": 553, "line": "地铁7号线", "duration_walking": 439, "lng": "116.505927", "lat": "39.872916", "name": "欢乐谷景区"}], "tag": "旅游景点;游乐园", "lng": 116.501432, "id": "1100023", "name": "北京欢乐谷", "lat": 39.873859, "level": 4}
{"address": "兴隆西街9号", "uid": "8a50a67babaf84f40f0e6b2c", "subway": [{"distance_walking": 559, "line": "八通线", "duration_walking": 446, "lng": "116.537813", "lat": "39.915734", "name": "高碑店(地铁站)"}], "tag": "旅游景点;博物馆", "lng": 116.532584, "id": "1100024", "name": "中国紫檀博物馆", "lat": 39.916801, "level": 4}
{"address": "太阳宫芍药居甲8号", "uid": "3a0fbba8e9bb1a419fe321ad", "subway": [{"distance_walking": 777, "line": "地铁10号线", "duration_walking": 619, "lng": "116.412371", "lat": "39.983322", "name": "安贞门"}], "tag": "旅游景点;风景区", "lng": 116.409248, "id": "1100025", "name": "元大都城垣遗址公园(牤牛桥社区居委会西北)", "lat": 39.982398, "level": 4}
{"address": "农展南路1号", "uid": "5cf5d3b0bf74a8f6f82d6110", "subway": [{"distance_walking": 402, "line": "地铁14号线东段", "duration_walking": 319, "lng": "116.484946", "lat": "39.939443", "name": "朝阳公园"}], "tag": "旅游景点;风景区", "lng": 116.488811, "id": "1100026", "name": "朝阳公园", "lat": 39.940206, "level": 4}
{"address": "清华西路28号", "uid": "62d852adf09e449a2fb17ef5", "subway": [{"distance_walking": 1567, "line": "地铁4号线大兴线", "duration_walking": 1247, "lng": "116.315938", "lat": "40.005466", "name": "圆明园"}], "tag": "旅游景点;文物古迹", "lng": 116.314154, "id": "1100027", "name": "圆明园遗址公园", "lat": 40.01651, "level": 4}
{"address": "北京市植物园(卧佛寺)", "uid": "550fd5f9c8d53478931fc9c4", "subway": [{"distance_walking": 1333, "line": "西郊线", "duration_walking": 1058, "lng": "116.211114", "lat": "39.999821", "name": "香山"}], "tag": "旅游景点;植物园", "lng": 116.216314, "id": "1100028", "name": "北京植物园", "lat": 40.008634, "level": 4}
{"address": "香山公园买卖街40号", "uid": "6d282c407a4ef37a1676434f", "subway": [{"distance_walking": 899, "line": "西郊线", "duration_walking": 716, "lng": "116.211114", "lat": "39.999821", "name": "香山"}], "tag": "旅游景点;风景区", "lng": 116.203098, "id": "1100029", "name": "香山公园", "lat": 39.996942, "level": 4}
{"address": "西三环中路11号", "uid": "2949a58c58499370a1d230e5", "subway": [{"distance_walking": 1757, "line": "10号线", "duration_walking": 1402, "lng": "116.304476", "lat": "39.929679", "name": "西钓鱼台(地铁站)"}], "tag": "旅游景点;风景区", "lng": 116.31371, "id": "1100030", "name": "中央广播电视塔", "lat": 39.925473, "level": 4}
{"address": "中关村南大街35号", "uid": "49c6ce91c412a12c8d772700", "subway": [{"distance_walking": 1270, "line": "地铁4号线大兴线;地铁9号线", "duration_walking": 1013, "lng": "116.331897", "lat": "39.948864", "name": "国家图书馆"}], "tag": "旅游景点;风景区", "lng": 116.32471, "id": "1100031", "name": "紫竹院公园", "lat": 39.948412, "level": 4}
{"address": "西三环中路10号", "uid": "3810c87916332c8b9d09f7b2", "subway": [{"distance_walking": 1320, "line": "地铁10号线;地铁1号线", "duration_walking": 1052, "lng": "116.316696", "lat": "39.913509", "name": "公主坟"}], "tag": "旅游景点;风景区", "lng": 116.323097, "id": "1100032", "name": "玉渊潭公园", "lat": 39.920325, "level": 4}
{"address": "苏家坨镇凤凰岭路19号", "uid": "fe488656344d24f859bbbc63", "tag": "旅游景点;风景区", "lng": 116.103722, "id": "1100033", "name": "凤凰岭自然风景区", "lat": 40.110225, "level": 4}
{"address": "花乡大葆台158号", "uid": "0174a8e582b9cd8fbea2407b", "subway": [{"distance_walking": 801, "line": "房山线", "duration_walking": 637, "lng": "116.298064", "lat": "39.814089", "name": "大葆台(地铁站)"}], "tag": "旅游景点;风景区", "lng": 116.293988, "id": "1100034", "name": "世界公园", "lat": 39.816765, "level": 4}
{"address": "王佐镇长青路99号", "uid": "83c8d282d2f54cd386420e64", "tag": "旅游景点;风景区", "lng": 116.160495, "id": "1100035", "name": "北京南宫旅游景区", "lat": 39.799622, "level": 4}
{"address": "长辛店镇大灰厂东路55号", "uid": "f60a15ed8f5278ecbb17e704", "tag": "旅游景点;风景区", "lng": 116.127199, "id": "1100036", "name": "北宫国家森林公园", "lat": 39.868709, "level": 4}
{"address": "草桥南四环北侧", "uid": "baae3dde2007d4ada6da399e", "subway": [{"distance_walking": 1372, "line": "地铁10号线", "duration_walking": 1093, "lng": "116.359241", "lat": "39.851597", "name": "草桥"}], "tag": "旅游景点;植物园", "lng": 116.358986, "id": "1100037", "name": "北京世界花卉大观园", "lat": 39.841958, "level": 4}
{"address": "卢沟桥宛平城内街101号", "uid": "22e11407287326b4d5b74e07", "subway": [{"distance_walking": 1951, "line": "地铁14号线西段", "duration_walking": 1558, "lng": "116.246953", "lat": "39.865215", "name": "大瓦窑"}], "tag": "旅游景点;其他", "lng": 116.232484, "id": "1100038", "name": "抗日纪念碑", "lat": 39.857906, "level": 4}
{"address": "南四环西路126号", "uid": "35d6b4d391445bb1e81e97f3", "subway": [{"distance_walking": 1277, "line": "9号线", "duration_walking": 1017, "lng": "116.303852", "lat": "39.838691", "name": "科怡路(地铁站)"}], "tag": "旅游景点;博物馆", "lng": 116.308106, "id": "1100039", "name": "北京汽车博物馆", "lat": 39.835053, "level": 4}
{"address": "丰台区射击场路15号", "uid": "14076deea795edf402294f07", "subway": [{"distance_walking": 2586, "line": "地铁14号线西段", "duration_walking": 2064, "lng": "116.208364", "lat": "39.867099", "name": "园博园"}], "tag": "旅游景点;风景区", "lng": 116.197128, "id": "1100040", "name": "北京园博园", "lat": 39.882531, "level": 4}
{"address": "八大处公园管理处", "uid": "4edf9fbf7699998dcc06a44d", "tag": "旅游景点;风景区", "lng": 116.192588, "id": "1100041", "name": "八大处公园", "lat": 39.961044, "level": 4}
{"address": "石景山路25号", "uid": "50569b92946486fb5cd4fe48", "subway": [{"distance_walking": 1108, "line": "地铁1号线", "duration_walking": 881, "lng": "116.21939", "lat": "39.913076", "name": "八角游乐园"}], "tag": "旅游景点;游乐园", "lng": 116.215349, "id": "1100042", "name": "北京石景山游乐园", "lat": 39.917571, "level": 4}
{"address": "潭柘寺镇潭柘寺管理处", "uid": "b7021bf8eab230faf4e73b09", "tag": "旅游景点;文物古迹", "lng": 116.03762, "id": "1100043", "name": "潭柘寺", "lat": 39.91122, "level": 4}
{"address": "永定镇戒台寺管理处", "uid": "df7c2341136f2e92841541b7", "tag": "旅游景点;文物古迹", "lng": 116.093809, "id": "1100044", "name": "戒台寺", "lat": 39.875628, "level": 4}
{"address": "大石窝镇水头村云居寺管理处", "uid": "f6bae871677062d86240a9e9", "tag": "旅游景点;文物古迹", "lng": 115.78105, "id": "1100045", "name": "云居寺·石经山", "lat": 39.615457, "level": 4}
{"address": "河北镇南车营村石花洞管理处", "uid": "72d9388f3f045071990050db", "tag": "无", "lng": 115.953839, "id": "1100046", "name": "石花洞", "lat": 39.801694, "level": 4}
{"address": "周口店大街1号", "uid": "f996d7dc5d825cb3aecb66dc", "tag": "出入口;门", "lng": 115.943026, "id": "1100047", "name": "周口店遗址博物馆-西2门", "lat": 39.693796, "level": 4}
{"address": "十渡镇人民政府管委会", "uid": "64ff3be1653dd1bb90114cc4", "tag": "旅游景点;风景区", "lng": 115.606468, "id": "1100048", "name": "北京十渡风景名胜区", "lat": 39.644162, "level": 4}
{"address": "史家营乡柳林水村", "uid": "593850fb2d22fe5ddf1e52c7", "tag": "旅游景点;风景区", "lng": 115.728135, "id": "1100049", "name": "圣莲山风景区", "lat": 39.84015, "level": 4}
{"address": "宋梁路北运河桥南", "uid": "b3f6f9b15dbf37754c6d46e2", "tag": "旅游景点;公园", "lng": 116.748887, "id": "1100050", "name": "通州大运河森林公园", "lat": 39.8824, "level": 4}
{"address": "梨园镇九棵树东路68号", "uid": "18165334570fc407fb2d61f1", "subway": [{"distance_walking": 199, "line": "八通线", "duration_walking": 159, "lng": "116.685382", "lat": "39.881346", "name": "临河里(地铁站)"}], "tag": "文化传媒;展览馆", "lng": 116.683479, "id": "1100051", "name": "韩美林艺术馆", "lat": 39.881485, "level": 4}
{"address": "白马路19号", "uid": "70825efb79688f6c354aaea5", "tag": "旅游景点;风景区", "lng": 116.698953, "id": "1100052", "name": "顺义奥林匹克水上公园", "lat": 40.187879, "level": 4}
{"address": "杨镇红寺村北1000米", "uid": "0ed20a15533384e957bffffc", "tag": "旅游景点;风景区", "lng": 116.804828, "id": "1100053", "name": "北京国际鲜花港", "lat": 40.187411, "level": 4}
{"address": "南口镇居庸关村居庸关管理处", "uid": "7524cb4f2624812d04026f55", "tag": "旅游景点;文物古迹", "lng": 116.078663, "id": "1100054", "name": "居庸关长城", "lat": 40.299791, "level": 4}
{"address": "小汤山镇航空博物馆", "uid": "108b1ceafad4fdac3586f467", "tag": "旅游景点;博物馆", "lng": 116.368551, "id": "1100055", "name": "中国航空博物馆", "lat": 40.187427, "level": 4}
{"address": "小汤山镇龙脉温泉度假村", "uid": "aece74f8e4a11aa1c2f1cf59", "tag": "酒店;星级酒店", "lng": 116.405205, "id": "1100056", "name": "龙脉温泉大酒店", "lat": 40.185456, "level": 4}
{"address": "小汤山镇后蔺沟村", "uid": "606289fd2fd1314ca204646d", "tag": "公司企业;农林园艺", "lng": 116.439621, "id": "1100057", "name": "小汤山现代农业科技示范园", "lat": 40.161189, "level": 4}
{"address": "北七家镇宏福创业园", "uid": "eb43f92cdf072e9e734b87cb", "subway": [{"distance_walking": 3640, "line": "地铁8号线", "duration_walking": 2908, "lng": "116.357247", "lat": "40.095792", "name": "平西府"}], "tag": "休闲娱乐;其他", "lng": 116.379211, "id": "1100058", "name": "温都水城", "lat": 40.107738, "level": 4}
{"address": "兴寿镇西湖村银山塔林管理处", "uid": "8548e873f818c0edf03cbabc", "tag": "旅游景点;文物古迹", "lng": 116.335109, "id": "1100059", "name": "银山塔林风景区", "lat": 40.320998, "level": 4}
{"address": "榆垡镇万亩林", "uid": "e85e2527b6f7615395f08cf8", "tag": "旅游景点;动物园", "lng": 116.342645, "id": "1100060", "name": "北京野生动物园", "lat": 39.50183, "level": 4}
{"address": "东高村镇大旺务村", "uid": "4bb049d9e38906449900502c", "tag": "旅游景点;风景区", "lng": 117.152828, "id": "1100061", "name": "北京平谷青龙山旅游区", "lat": 40.086212, "level": 4}
{"address": "韩庄镇东", "uid": "ff4933daf92894fa631c67ba", "tag": "旅游景点;风景区", "lng": 117.324964, "id": "1100062", "name": "金海湖", "lat": 40.183034, "level": 4}
{"address": "刘家店镇北吉山村北吉山大街39号", "uid": "ef7fe394a666dd12c51e5182", "tag": "政府机构;行政单位", "lng": 116.988599, "id": "1100063", "name": "北京丫髻山道教文化名胜区管理委员会", "lat": 40.270812, "level": 4}
{"address": "山东庄镇鱼子山村", "uid": "992c91eaf6397e2f0a5cb366", "tag": "旅游景点;风景区", "lng": 117.173804, "id": "1100064", "name": "京东大峡谷", "lat": 40.249044, "level": 4}
{"address": "怀柔红螺东路2号", "uid": "605884e7c61e3573871541a3", "tag": "旅游景点;文物古迹", "lng": 116.631874, "id": "1100065", "name": "红螺寺", "lat": 40.381318, "level": 4}
{"address": "怀北雁水路3号", "uid": "5c2dc21daf5986076fc02c26", "tag": "旅游景点;风景区", "lng": 116.682471, "id": "1100066", "name": "雁栖湖旅游区", "lat": 40.401514, "level": 4}
{"address": "怀北镇大水峪水库管理处", "uid": "180794fce9bd73f4fb2d61d8", "tag": "生活服务;售票处", "lng": 116.690885, "id": "1100067", "name": "青龙峡旅游区索道", "lat": 40.46006, "level": 4}
{"address": "九渡河镇西水峪村", "uid": "d7fd2ad3fbaf0c540bccdd74", "tag": "旅游景点;文物古迹", "lng": 116.320118, "id": "1100068", "name": "黄花城水长城旅游区", "lat": 40.418252, "level": 4}
{"address": "古北口镇司马台村北", "uid": "bff8fa7d15e3f1a0c9213d95", "tag": "旅游景点;文物古迹", "lng": 117.285918, "id": "1100069", "name": "司马台长城景区", "lat": 40.660442, "level": 4}
{"address": "石城镇大关桥", "uid": "a99d3ffe27ddbed3c17da211", "tag": "休闲娱乐;农家院", "lng": 116.834458, "id": "1100070", "name": "黑龙潭依山农家院", "lat": 40.559149, "level": 4}
{"address": "石城镇南石城村", "uid": "417224345d2ae39f7bb55c3b", "tag": "出入口;门", "lng": 116.818367, "id": "1100071", "name": "桃源仙谷自然风景区-东门", "lat": 40.550268, "level": 4}
{"address": "巨各庄镇东白岩村", "uid": "c9e607715ff3c1d7cf06a455", "tag": "酒店;其他", "lng": 116.908704, "id": "1100072", "name": "北京张裕爱斐堡国际酒庄", "lat": 40.381905, "level": 4}
{"address": "旧县镇古城村北", "uid": "9f97b1c506534806b64f5425", "tag": "旅游景点;风景区", "lng": 116.015528, "id": "1100073", "name": "龙庆峡景区", "lat": 40.554295, "level": 4}
{"address": "八达岭镇石佛寺村", "uid": "beabdbf4e155d19b7069d327", "tag": "旅游景点;文物古迹", "lng": 116.044506, "id": "1100074", "name": "八达岭水关长城景区", "lat": 40.344582, "level": 4}
{"address": "延庆县千家店镇", "uid": "5fa7fcd0c086e8d67069d3d6", "tag": "旅游景点;风景区", "lng": 116.256924, "id": "1100075", "name": "百里山水画廊景区", "lat": 40.666794, "level": 4}
{"address": "康庄镇刘浩营村西", "uid": "f757e6eee36b7a17260bd02b", "tag": "旅游景点;风景区", "lng": 115.864188, "id": "1100076", "name": "野鸭湖国家湿地公园", "lat": 40.416672, "level": 4}
{"address": "张山营镇松山自然保护区", "uid": "fa01e9378a4cf04a774ff12a", "tag": "旅游景点;风景区", "lng": 115.840872, "id": "1100077", "name": "北京松山森林旅游区", "lat": 40.517552, "level": 4}
{"address": "东四十条21号", "uid": "25ec69fc460d557dc26c14d2", "subway": [{"distance_walking": 445, "line": "地铁2号线", "duration_walking": 354, "lng": "116.440638", "lat": "39.939841", "name": "东四十条"}], "tag": "旅游景点;博物馆", "lng": 116.439208, "id": "1100078", "name": "保利艺术博物馆", "lat": 39.938534, "level": 3}
{"address": "前门大街16号", "uid": "0ed2dd63d168c823b45f1e94", "subway": [{"distance_walking": 177, "line": "地铁7号线", "duration_walking": 140, "lng": "116.404574", "lat": "39.89767", "name": "珠市口"}], "tag": "出入口;门", "lng": 116.404862, "id": "1100079", "name": "前门大街景区(南门)", "lat": 39.897961, "level": 3}
{"address": "东城区青年湖南街15号", "uid": "083a55fa38d91279246e98d3", "subway": [{"distance_walking": 1265, "line": "地铁8号线", "duration_walking": 1010, "lng": "116.400884", "lat": "39.963931", "name": "安德里北街"}], "tag": "旅游景点;公园", "lng": 116.408828, "id": "1100080", "name": "青年湖公园", "lat": 39.961836, "level": 3}
{"address": "西四羊肉胡同15号", "uid": "ebcd3f91cd80c02ec8213de0", "subway": [{"distance_walking": 259, "line": "北京市西城区", "duration_walking": 206, "lng": "116.379305", "lat": "39.929133", "name": "地铁西四站"}], "tag": "旅游景点;博物馆", "lng": 116.378235, "id": "1100081", "name": "中国地质博物馆", "lat": 39.929457, "level": 3}
{"address": "月坛北街甲6号", "uid": "06881d62cb48756c7069d3f4", "subway": [{"distance_walking": 1169, "line": "阜成门外大街2号万通商城1F层", "duration_walking": 931, "lng": "116.361352", "lat": "39.928815", "name": "万通商城-出入口通往地铁站"}], "tag": "旅游景点;文物古迹", "lng": 116.35884, "id": "1100082", "name": "月坛公园", "lat": 39.922321, "level": 3}
{"address": "德胜门东大街9号", "uid": "e3e2cd9d827fb9e3c7f50d02", "subway": [{"distance_walking": 791, "line": "地铁2号线", "duration_walking": 630, "lng": "116.379185", "lat": "39.954765", "name": "积水潭"}], "tag": "文化传媒;展览馆", "lng": 116.386005, "id": "1100083", "name": "北京市古代钱币展览馆", "lat": 39.955992, "level": 3}
{"address": "南菜园街12号", "uid": "15a93810b646cea415c8f6b9", "subway": [{"distance_walking": 2663, "line": "地铁4号线大兴线", "duration_walking": 2126, "lng": "116.380902", "lat": "39.884625", "name": "陶然亭"}], "tag": "旅游景点;风景区", "lng": 116.362827, "id": "1100084", "name": "北京大观园", "lat": 39.877077, "level": 3}
{"address": "虎坊路3号", "uid": "1020060fe3a36aa61894c6f0", "subway": [{"distance_walking": 83, "line": "地铁7号线", "duration_walking": 65, "lng": "116.390654", "lat": "39.895691", "name": "虎坊桥"}], "tag": "休闲娱乐;剧院", "lng": 116.390834, "id": "1100085", "name": "北京湖广会馆大戏楼", "lat": 39.895052, "level": 3}
{"address": "前门西大街3号楼", "uid": "0ce65c2df95d8b402c4733b8", "subway": [{"distance_walking": 909, "line": "地铁2号线", "duration_walking": 725, "lng": "116.404276", "lat": "39.906534", "name": "前门"}], "tag": "美食;茶座", "lng": 116.399592, "id": "1100086", "name": "老舍茶馆", "lat": 39.905978, "level": 3}
{"address": "前门大栅栏街36号", "uid": "bb1d38e47c543c540c0a7054", "subway": [{"distance_walking": 824, "line": "地铁7号线", "duration_walking": 657, "lng": "116.404574", "lat": "39.89767", "name": "珠市口"}], "tag": "休闲娱乐;电影院", "lng": 116.401555, "id": "1100087", "name": "大观楼影城", "lat": 39.901945, "level": 3}
{"address": "长椿街9号", "uid": "9080663dd37ec2f6306212ed", "subway": [{"distance_walking": 859, "line": "地铁7号线", "duration_walking": 686, "lng": "116.364626", "lat": "39.89543", "name": "广安门内"}], "tag": "旅游景点;博物馆", "lng": 116.37154, "id": "1100088", "name": "北京宣南文化博物馆", "lat": 39.898718, "level": 3}
{"address": "槐柏树街12号", "uid": "42402829d79254f1932ca36b", "subway": [{"distance_walking": 823, "line": "地铁2号线", "duration_walking": 655, "lng": "116.369911", "lat": "39.90534", "name": "长椿街"}], "tag": "旅游景点;公园", "lng": 116.365768, "id": "1100089", "name": "宣武艺园", "lat": 39.900955, "level": 3}
{"address": "廊坊二条44号", "uid": "cf25e01ab075942ec51e51dd", "subway": [{"distance_walking": 416, "line": "地铁7号线", "duration_walking": 332, "lng": "116.390654", "lat": "39.895691", "name": "虎坊桥"}], "tag": "房地产", "lng": 116.391336, "id": "1100090", "name": "大栅栏商业街区", "lat": 39.898601, "level": 3}
{"address": "后海北沿46号", "uid": "788653601964b7886140a973", "subway": [{"distance_walking": 1429, "line": "地铁2号线", "duration_walking": 1138, "lng": "116.379185", "lat": "39.954765", "name": "积水潭"}], "tag": "旅游景点;文物古迹", "lng": 116.389424, "id": "1100091", "name": "宋庆龄同志故居", "lat": 39.95179, "level": 3}
{"address": "白纸坊桥南护城河西岸", "uid": "99df5229edbb223d2d4733e1", "subway": [{"distance_walking": 3860, "line": "开阳路与马家堡西路交叉口南200米", "duration_walking": 3083, "lng": "116.377599", "lat": "39.859576", "name": "地铁马家堡站"}], "tag": "旅游景点;公园", "lng": 116.356382, "id": "1100092", "name": "金中都公园", "lat": 39.877163, "level": 3}
{"address": "朝外日坛北路6号", "uid": "3dc9befd7c6f810fbea240fe", "subway": [{"distance_walking": 1761, "line": "地铁1号线", "duration_walking": 1406, "lng": "116.457089", "lat": "39.914223", "name": "永安里"}], "tag": "旅游景点;风景区", "lng": 116.450437, "id": "1100093", "name": "日坛公园", "lat": 39.921342, "level": 3}
{"address": "团结湖南里16号", "uid": "65583e7e4700f1b5f5c59c87", "subway": [{"distance_walking": 364, "line": "地铁10号线;地铁6号线", "duration_walking": 290, "lng": "116.468237", "lat": "39.928981", "name": "呼家楼"}], "tag": "旅游景点;风景区", "lng": 116.471072, "id": "1100094", "name": "团结湖公园", "lat": 39.931445, "level": 3}
{"address": "后八里庄5号", "uid": "f3bb67513c92745c9d95deb8", "subway": [{"distance_walking": 1084, "line": "地铁6号线", "duration_walking": 864, "lng": "116.508479", "lat": "39.929238", "name": "十里堡"}], "tag": "旅游景点;公园", "lng": 116.499257, "id": "1100095", "name": "红领巾公园", "lat": 39.932028, "level": 3}
{"address": "朝阳公园路6号", "uid": "10dbe9ba957db7c1cafa5fff", "subway": [{"distance_walking": 913, "line": "地铁14号线东段", "duration_walking": 727, "lng": "116.48155", "lat": "39.950188", "name": "枣营"}], "tag": "购物;购物中心", "lng": 116.482308, "id": "1100096", "name": "蓝色港湾国际商区", "lat": 39.955449, "level": 3}
{"address": "金盏乡楼梓庄村", "uid": "56edab31ecf6b941f4231038", "tag": "酒店;其他", "lng": 116.617844, "id": "1100097", "name": "蓝调庄园酒店", "lat": 39.971789, "level": 3}
{"address": "四营乡高碑店路", "uid": "65e192ffa258393f8936eed0", "tag": "旅游景点;公园", "lng": 116.541553, "id": "1100098", "name": "古塔公园", "lat": 39.88471, "level": 3}
{"address": "高碑店乡兴隆庄甲8号", "uid": "754d6e8126d933a20aa8d4cd", "subway": [{"distance_walking": 523, "line": "八通线", "duration_walking": 416, "lng": "116.538", "lat": "39.915798", "name": "高碑店"}], "tag": "出入口;门", "lng": 116.536083, "id": "1100099", "name": "兴隆公园-西门", "lat": 39.91909, "level": 3}
{"address": "将台乡东八间房村临甲10号", "uid": "4ce10ce6f43a04a1451a3289", "subway": [{"distance_walking": 2451, "line": "地铁14号线东段", "duration_walking": 1957, "lng": "116.496253", "lat": "39.97696", "name": "将台"}], "tag": "旅游景点;公园", "lng": 116.518001, "id": "1100100", "name": "将府公园", "lat": 39.976251, "level": 3}
{"address": "望京东路甲6号", "uid": "b3aa435d4df8850b14764392", "subway": [{"distance_walking": 3301, "line": "地铁15号线", "duration_walking": 2636, "lng": "116.4933", "lat": "40.00927", "name": "望京东"}], "tag": "旅游景点;公园", "lng": 116.504965, "id": "1100101", "name": "大望京公园", "lat": 40.000759, "level": 3}
{"address": "厂坡村甲2号", "uid": "8ad3ee02803d4162a3acc4de", "subway": [{"distance_walking": 1151, "line": "地铁10号线;地铁1号线", "duration_walking": 918, "lng": "116.467523", "lat": "39.914435", "name": "国贸"}], "tag": "旅游景点;公园", "lng": 116.471665, "id": "1100102", "name": "庆丰公园", "lat": 39.908878, "level": 3}
{"address": "师家坟村156号", "uid": "3dc0b7342d82546cc61e516e", "subway": [{"distance_walking": 1980, "line": "地铁13号线;地铁15号线", "duration_walking": 1580, "lng": "116.455596", "lat": "40.001109", "name": "望京西"}], "tag": "旅游景点;公园", "lng": 116.461623, "id": "1100103", "name": "北小河公园", "lat": 40.010946, "level": 3}
{"address": "将台西路9号", "uid": "964362f04c359931b020a811", "subway": [{"distance_walking": 1610, "line": "地铁14号线东段", "duration_walking": 1285, "lng": "116.496253", "lat": "39.97696", "name": "将台"}], "tag": "旅游景点;公园", "lng": 116.481485, "id": "1100104", "name": "四得公园", "lat": 39.977484, "level": 3}
{"address": "王四营乡白鹿公园", "uid": "bff8fa7d5b12b7ddc8213de1", "tag": "旅游景点;公园", "lng": 116.561538, "id": "1100105", "name": "白鹿公园", "lat": 39.883932, "level": 3}
{"address": "十里河大羊坊路37号闽龙广场四层", "uid": "6541cc4cdc28520aa3acc462", "subway": [{"distance_walking": 1601, "line": "地铁7号线", "duration_walking": 1278, "lng": "116.364626", "lat": "39.89543", "name": "广安门内"}], "tag": "购物;家居建材", "lng": 116.35497, "id": "1100106", "name": "北京仿古陶瓷艺术馆", "lat": 39.888334, "level": 3}
{"address": "西三环中路11号中央塔下", "uid": "e0845493c50389c921f017f6", "subway": [{"distance_walking": 1824, "line": "10号线", "duration_walking": 1455, "lng": "116.304476", "lat": "39.929679", "name": "西钓鱼台(地铁站)"}], "tag": "旅游景点;水族馆", "lng": 116.312857, "id": "1100107", "name": "太平洋海底世界博览馆", "lat": 39.924905, "level": 3}
{"address": "黑山扈北口19号", "uid": "4f0577ece30ad8582ab97c0c", "subway": [{"distance_walking": 749, "line": "地铁16号线", "duration_walking": 596, "lng": "116.279261", "lat": "40.038769", "name": "马连洼"}], "tag": "无", "lng": 116.27157, "id": "1100108", "name": "百望山森林公园", "lat": 40.037812, "level": 3}
{"address": "苏家坨镇北安河村西", "uid": "504d6113d45f1dcd475726b7", "tag": "政府机构;行政单位", "lng": 116.112074, "id": "1100109", "name": "鹫峰国家森林公园管理处", "lat": 40.070801, "level": 3}
{"address": "玉泉路2号", "uid": "00f1c7fb8dee9762c056ac49", "subway": [{"distance_walking": 2854, "line": "地铁6号线", "duration_walking": 2281, "lng": "116.282736", "lat": "39.9386", "name": "海淀五路居"}], "tag": "旅游景点;博物馆", "lng": 116.260242, "id": "1100110", "name": "北京龙徽葡萄酒博物馆", "lat": 39.932657, "level": 3}
{"address": "香山南路南河滩", "uid": "6188b34e6a11e7d0e812e4a3", "subway": [{"distance_walking": 4033, "line": "西郊线", "duration_walking": 3224, "lng": "116.211114", "lat": "39.999821", "name": "香山"}], "tag": "旅游景点;公园", "lng": 116.201261, "id": "1100111", "name": "北京西山国家森林公园", "lat": 39.982485, "level": 3}
{"address": "苏家坨镇大觉寺路9号", "uid": "465d2bc55c987ed7102935a0", "tag": "旅游景点;文物古迹", "lng": 116.112682, "id": "1100112", "name": "大觉寺", "lat": 40.05838, "level": 3}
{"address": "苏家坨镇南安河1号", "uid": "f60a15ed8ff978ecba17e7a9", "subway": [{"distance_walking": 3003, "line": "地铁16号线", "duration_walking": 2400, "lng": "116.136825", "lat": "40.073863", "name": "北安河"}], "tag": "运动健身;体育场馆", "lng": 116.145031, "id": "1100113", "name": "汇通诺尔狂飚运动乐园", "lat": 40.05759, "level": 3}
{"address": "西四环北路117号", "uid": "565ba060e3ff80998c1a897e", "subway": [{"distance_walking": 2005, "line": "地铁6号线", "duration_walking": 1602, "lng": "116.282736", "lat": "39.9386", "name": "海淀五路居"}], "tag": "旅游景点;博物馆", "lng": 116.277154, "id": "1100114", "name": "皇家菜博物馆", "lat": 39.95198, "level": 3}
{"address": "海淀区北三环西路甲31号", "uid": "d97c2af2b342355f95ca07ec", "subway": [{"distance_walking": 1015, "line": "地铁13号线", "duration_walking": 808, "lng": "116.35182", "lat": "39.972034", "name": "大钟寺"}], "tag": "旅游景点;博物馆", "lng": 116.344611, "id": "1100115", "name": "大钟寺古钟博物馆", "lat": 39.974916, "level": 3}
{"address": "卢沟桥城南街77号", "uid": "e415389572b15e2ef603b87c", "subway": [{"distance_walking": 2006, "line": "地铁14号线西段", "duration_walking": 1602, "lng": "116.246953", "lat": "39.865215", "name": "大瓦窑"}], "tag": "旅游景点;其他", "lng": 116.233865, "id": "1100116", "name": "中国人民抗日战争纪念雕塑园", "lat": 39.854603, "level": 3}
{"address": "王佐镇怪村西", "uid": "35debf29046fdf44a6da3977", "tag": "旅游景点;风景区", "lng": 116.095004, "id": "1100117", "name": "北京青龙湖公园", "lat": 39.802613, "level": 3}
{"address": "石景山路68号", "uid": "0275f2afcf1e590cc9291525", "tag": "教育培训;培训机构", "lng": 116.211938, "id": "1100118", "name": "北京工业大学工程训练中心", "lat": 39.935726, "level": 3}
{"address": "妙峰山镇涧沟村", "uid": "9e2dbbf6bf959e9e16a19044", "tag": "旅游景点;风景区", "lng": 116.032934, "id": "1100119", "name": "妙峰山风景名胜区", "lat": 40.070943, "level": 3}
{"address": "王平镇安家庄村", "uid": "c21db9e576b3578301ff2d95", "tag": "旅游景点;风景区", "lng": 117.287197, "id": "1100120", "name": "九龙十八潭风景区", "lat": 40.589255, "level": 3}
{"address": "斋堂镇火村村南", "uid": "fd13a3f2697911fab1077d09", "tag": "旅游景点;风景区", "lng": 115.724136, "id": "1100121", "name": "双龙峡自然风景区", "lat": 39.956851, "level": 3}
{"address": "剧场东街甲10号", "uid": "a3f21eee3a55075d2eb17ee4", "tag": "旅游景点;风景区", "lng": 115.671936, "id": "1100122", "name": "黄芩仙谷", "lat": 39.973382, "level": 3}
{"address": "斋堂镇爨柏景区办公室", "uid": "476016ad621dcbacc909f016", "tag": "政府机构;行政单位", "lng": 115.669333, "id": "1100123", "name": "北京爨柏景区管理中心", "lat": 39.977542, "level": 3}
{"address": "妙峰山镇碳厂村", "uid": "e85e2527199b802d95f08c1a", "tag": "旅游景点;风景区", "lng": 115.97665, "id": "1100124", "name": "神泉峡风景区", "lat": 40.052142, "level": 3}
{"address": "雁翅镇珠窝村西北1公里处", "uid": "6213360aca30bfa9c42ba158", "tag": "旅游景点;公园", "lng": 115.78208, "id": "1100125", "name": "珍珠湖景区(建设中)", "lat": 40.086988, "level": 3}
{"address": "潭柘寺镇桑峪村", "uid": "b7021bf8eab230faf4e73b09", "tag": "旅游景点;文物古迹", "lng": 116.03762, "id": "1100126", "name": "潭柘寺景区", "lat": 39.91122, "level": 3}
{"address": "门头沟区妙峰山镇水峪咀村", "uid": "31f9101b4cf585ba26e0a0f0", "tag": "旅游景点;风景区", "lng": 116.056062, "id": "1100127", "name": "京西古道景区", "lat": 39.972497, "level": 3}
{"address": "韩村河镇韩村河村", "uid": "34e4850891e6a3fbd9d891f1", "tag": "文化传媒;展览馆", "lng": 115.967357, "id": "1100128", "name": "韩村河山庄会议中心", "lat": 39.609266, "level": 3}
{"address": "张坊镇东关上村、黑牛水", "uid": "4ea3f2f10227ddaaaecb66c4", "tag": "旅游景点;风景区", "lng": 115.759432, "id": "1100129", "name": "仙栖洞风景区", "lat": 39.664589, "level": 3}
{"address": "韩村河镇圣水峪村", "uid": "bc4c6a5fdc7f4986c9fa5f27", "tag": "交通设施;停车场", "lng": 115.828096, "id": "1100130", "name": "上方山国家森林公园停车场", "lat": 39.670544, "level": 3}
{"address": "青龙湖镇青龙头村北", "uid": "635aa12b69027b723913fd5f", "tag": "旅游景点;游乐园", "lng": 116.085887, "id": "1100131", "name": "北京青龙湖水上游乐园", "lat": 39.795794, "level": 3}
{"address": "霞云岭乡四马台村", "uid": "cdef4edfbf622b4e28d7abc4", "tag": "旅游景点;风景区", "lng": 115.620006, "id": "1100132", "name": "白草畔自然风景区", "lat": 39.790645, "level": 3}
{"address": "史家营乡莲花庵村", "uid": "ec3af91391e164adb817e701", "tag": "生活服务;售票处", "lng": 115.6336, "id": "1100133", "name": "百花山风景区售票处", "lat": 39.854429, "level": 3}
{"address": "长沟镇六甲房村", "uid": "2487978f03287fd4dbd89160", "tag": "旅游景点;博物馆", "lng": 115.880227, "id": "1100134", "name": "房山世界地质公园博物馆", "lat": 39.590562, "level": 3}
{"address": "琉璃河董家林村", "uid": "237d68b87c4dea575e17c3c8", "tag": "旅游景点;博物馆", "lng": 116.063319, "id": "1100135", "name": "西周燕都遗址博物馆", "lat": 39.622907, "level": 3}
{"address": "长阳镇京良路南侧", "uid": "b82a49e1abff8afa0bccdd05", "subway": [{"distance_walking": 2614, "line": "房山线", "duration_walking": 2088, "lng": "116.195928", "lat": "39.766697", "name": "篱笆房"}], "tag": "购物;商铺", "lng": 116.175212, "id": "1100136", "name": "休闲服装店", "lat": 39.777674, "level": 3}
{"address": "张坊镇张坊村", "uid": "083a55fa3fd71379246e98c5", "tag": "旅游景点;文物古迹", "lng": 115.720906, "id": "1100137", "name": "张坊宋辽古战道", "lat": 39.576694, "level": 3}
{"address": "韩村河镇龙门口村", "uid": "35debf2905e3de44a6da39c3", "tag": "公司企业;农林园艺", "lng": 115.906534, "id": "1100138", "name": "北京韩村河龙门农业生态观光有限公司", "lat": 39.622471, "level": 3}
{"address": "霞云岭乡霞云岭村", "uid": "7c8eaaf55b461030e215f95f", "tag": "休闲娱乐;其他", "lng": 115.756914, "id": "1100139", "name": "霞云岭山水人家金水湖景区", "lat": 39.742472, "level": 3}
{"address": "永顺镇焦王庄", "uid": "7bc8fe9b3d5f967120f0178e", "tag": "文化传媒;展览馆", "lng": 116.676755, "id": "1100140", "name": "中国民兵武器装备陈列馆", "lat": 39.943642, "level": 3}
{"address": "通胡大街70号", "uid": "ec0b45f8099bd06416a1905c", "subway": [{"distance_walking": 1559, "line": "地铁6号线", "duration_walking": 1244, "lng": "116.694432", "lat": "39.90893", "name": "北运河西"}], "tag": "旅游景点;公园", "lng": 116.694882, "id": "1100141", "name": "通州运河公园", "lat": 39.914233, "level": 3}
{"address": "李遂镇西顺鑫绿色度假村", "uid": "65a13341b1a8464cfe0eb079", "tag": "酒店;星级酒店", "lng": 116.746415, "id": "1100142", "name": "北京顺鑫绿色度假村", "lat": 40.091363, "level": 3}
{"address": "顺义区杨镇", "uid": "c25f4fe6aef9ed687adbd232", "tag": "美食;中餐厅", "lng": 116.836563, "id": "1100143", "name": "汉石桥湿地双子湖餐厅", "lat": 40.15814, "level": 3}
{"address": "龙湾屯镇焦庄户村", "uid": "d80e76e6e1143444c9fa5f6b", "tag": "旅游景点;文物古迹", "lng": 116.876322, "id": "1100144", "name": "焦庄户地道战遗址纪念馆", "lat": 40.240121, "level": 3}
{"address": "南彩镇河北村民俗园", "uid": "19aa8ad40ea1493a5fbe8653", "tag": "旅游景点;其他", "lng": 116.735512, "id": "1100145", "name": "北京河北村民俗文化体验园", "lat": 40.137916, "level": 3}
{"address": "临空国际高新技术产业基地临空路二路1号", "uid": "0fe54d092393811026d2bb69", "tag": "无", "lng": 116.57325, "id": "1100146", "name": "七彩蝶园", "lat": 40.181404, "level": 3}
{"address": "十三陵水库东侧", "uid": "bb306f5872179230bd4842e7", "tag": "出入口;门", "lng": 116.283933, "id": "1100147", "name": "蟒山国家森林公园-西南门", "lat": 40.261776, "level": 3}
{"address": "流村镇瓦窑村", "uid": "15a9381025033fbd14c8f66a", "tag": "旅游景点;风景区", "lng": 116.016917, "id": "1100148", "name": "棋盘山景区", "lat": 40.135381, "level": 3}
{"address": "南口镇新元村南", "uid": "a674de4786a50c9e1576432f", "tag": "旅游景点;其他", "lng": 116.038878, "id": "1100149", "name": "鳌山国际休闲空间", "lat": 40.247578, "level": 3}
{"address": "南口镇马坊村1号", "uid": "a01f878b08954444f1193793", "tag": "出入口;门", "lng": 116.115547, "id": "1100150", "name": "中国北方国际射击场-南门", "lat": 40.238156, "level": 3}
{"address": "兴寿镇安四路69号", "uid": "15c1a47c5d9077751b94c6da", "tag": "旅游景点;植物园", "lng": 116.412886, "id": "1100151", "name": "草莓博览园(东区)", "lat": 40.206479, "level": 3}
{"address": "南口镇南涧路西口", "uid": "7157ad5ed4d51fbe1df74dc4", "tag": "房地产;住宅区", "lng": 116.15407, "id": "1100152", "name": "艺麓园", "lat": 40.24883, "level": 3}
{"address": "黄村镇明春苑春泽园2号", "uid": "8a0d696a6e9acf2d31f71d84", "tag": "旅游景点;公园", "lng": 116.301312, "id": "1100153", "name": "中华文化园", "lat": 39.79004, "level": 3}
{"address": "南苑南海子麋鹿苑", "uid": "0dc3d82d487bb16c75e5b6f5", "tag": "旅游景点;博物馆", "lng": 116.465141, "id": "1100154", "name": "南海子麋鹿苑博物馆", "lat": 39.784593, "level": 3}
{"address": "长子营镇留民营村", "uid": "80718263a20aecf88505bfb1", "tag": "休闲娱乐;农家院", "lng": 116.581027, "id": "1100155", "name": "留民营生态农场", "lat": 39.699899, "level": 3}
{"address": "黄村镇新华北路25号", "uid": "fbc30ea746eb8d25260bd0f8", "subway": [{"distance_walking": 214, "line": "地铁4号线大兴线", "duration_walking": 169, "lng": "116.339019", "lat": "39.748354", "name": "清源路"}], "tag": "旅游景点;博物馆", "lng": 116.338174, "id": "1100156", "name": "中国印刷博物馆", "lat": 39.749184, "level": 3}
{"address": "长子营镇104国道朱庄北口北行200米", "uid": "bc939d675c79409e0f0e6b6b", "tag": "旅游景点;植物园", "lng": 116.162015, "id": "1100157", "name": "南宫旅游景区-南宫热带植物园", "lat": 39.799697, "level": 3}
{"address": "渤海镇大榛峪村东", "uid": "5a47248736f635e92b06ce5b", "tag": "旅游景点;风景区", "lng": 116.49528, "id": "1100158", "name": "响水湖长城风景区", "lat": 40.47287, "level": 3}
{"address": "怀北镇椴树岭村黄土梁1号", "uid": "4b695589b4d1b0e43913fd6f", "tag": "旅游景点;植物园", "lng": 116.699614, "id": "1100159", "name": "红叶区", "lat": 40.548583, "level": 3}
{"address": "琉璃庙镇东峪村", "uid": "a5c3e2764c7c7afe38221c8f", "tag": "生活服务;售票处", "lng": 116.702538, "id": "1100160", "name": "云梦仙境景区售票处", "lat": 40.626169, "level": 3}
{"address": "桥梓镇北宅村南", "uid": "606ab0d08487322a0e3dda6f", "tag": "公司企业;公司", "lng": 116.556043, "id": "1100161", "name": "北京大唐庄园饮品有限公司", "lat": 40.345405, "level": 3}
{"address": "怀北镇河防口村548号", "uid": "bf29b702a9959f9909b93a77", "tag": "旅游景点;风景区", "lng": 116.668551, "id": "1100162", "name": "九谷口自然风景区", "lat": 40.448969, "level": 3}
{"address": "红星路1号", "uid": "e8ce0ade9a98654d9222e0fc", "tag": "旅游景点;博物馆", "lng": 116.671573, "id": "1100163", "name": "红星二锅头博物馆", "lat": 40.332088, "level": 3}
{"address": "桥梓镇口头村北200米", "uid": "1d56f3d8c0aad10a902ca37f", "tag": "旅游景点;风景区", "lng": 116.577581, "id": "1100164", "name": "圣泉山旅游风景区", "lat": 40.370045, "level": 3}
{"address": "喇叭沟门满族乡孙栅子村西", "uid": "bec18c0d07f9228616c90550", "tag": "生活服务;售票处", "lng": 116.49603, "id": "1100165", "name": "北京喇叭沟原始森林公园-售票处", "lat": 40.965766, "level": 3}
{"address": "杨宋镇凤祥二园一号", "uid": "f1f5cac5941ab19836b06c74", "tag": "旅游景点;其他", "lng": 116.676718, "id": "1100166", "name": "星美今晟影视城", "lat": 40.299437, "level": 3}
{"address": "怀北镇椴树岭村峪道河1号", "uid": "fa7da3e88271f16242d63e77", "tag": "旅游景点;风景区", "lng": 116.669735, "id": "1100167", "name": "石门山景区", "lat": 40.490713, "level": 3}
{"address": "石城镇贾峪村", "uid": "79cceb360e08ad891f580095", "tag": "旅游景点;风景区", "lng": 116.760289, "id": "1100168", "name": "清凉谷风景区", "lat": 40.639792, "level": 3}
{"address": "不老屯镇政府", "uid": "16f7d9fddb3e330b40024514", "tag": "旅游景点;风景区", "lng": 116.956173, "id": "1100169", "name": "云峰山自然风景区", "lat": 40.593068, "level": 3}
{"address": "太师屯镇龙潭沟村", "uid": "4ed729c7353971e1e5e9652f", "tag": "公司企业;公司", "lng": 117.077262, "id": "1100170", "name": "北京力维斯白龙潭旅游开发有限公司", "lat": 40.501023, "level": 3}
{"address": "琉璃庙镇后山堡村", "uid": "c2260ef6137f1927ddee8b1c", "tag": "旅游景点;风景区", "lng": 116.686094, "id": "1100171", "name": "云蒙山国家森林公园碑", "lat": 40.56156, "level": 3}
{"address": "巨各庄镇豆各庄村", "uid": "83bf93e408128de48bfc06ef", "tag": "旅游景点;博物馆", "lng": 117.013983, "id": "1100172", "name": "铁矿博物馆", "lat": 40.37127, "level": 3}
{"address": "溪翁庄镇云龙涧景区", "uid": "44f69a47b070da90d5b74ed2", "tag": "无", "lng": 116.799603, "id": "1100173", "name": "云龙涧风景区", "lat": 40.492111, "level": 3}
{"address": "新城子镇沙滩村", "uid": "cdef4edfa403443328d7ab20", "tag": "旅游景点;风景区", "lng": 117.368983, "id": "1100174", "name": "雾灵西峰景区", "lat": 40.640222, "level": 3}
{"address": "檀营乡冶仙塔旅游风景区", "uid": "9d83ad931f74856132f71dc8", "tag": "无", "lng": 116.878846, "id": "1100175", "name": "冶仙塔景区", "lat": 40.400796, "level": 3}
{"address": "石城镇硫辛路125号", "uid": "fc767524ae4414fa4f776e95", "tag": "旅游景点;风景区", "lng": 116.805201, "id": "1100176", "name": "青菁顶景区", "lat": 40.579004, "level": 3}
{"address": "太师屯镇令公村甲一号", "uid": "8b64f3e3e991925380a00c09", "tag": "旅游景点;风景区", "lng": 117.240608, "id": "1100177", "name": "仙居谷风景区农家院", "lat": 40.594061, "level": 3}
{"address": "石城镇捧河岩村", "uid": "5ab9e894b5272a62e81e978c", "tag": "酒店", "lng": 116.70928, "id": "1100178", "name": "白河湾薰衣草庄园", "lat": 40.657497, "level": 3}
{"address": "八达岭镇岔道村水泉沟", "uid": "d991e11609e8d02b1f389423", "tag": "旅游景点;动物园", "lng": 116.001343, "id": "1100179", "name": "八达岭野生动物世界", "lat": 40.359586, "level": 3}
{"address": "靳家堡乡中羊坊", "uid": "98fa8ab0c366956e96f08c68", "tag": "运动健身;体育场馆", "lng": 115.976121, "id": "1100180", "name": "北京石京龙滑雪场", "lat": 40.531232, "level": 3}
{"address": "八达岭经济开发区66号", "uid": "f38b966362982aaa80a00c0b", "tag": "运动健身;体育场馆", "lng": 115.964369, "id": "1100181", "name": "八达岭滑雪场", "lat": 40.352903, "level": 3}
{"address": "八达岭镇东沟村", "uid": "cdd9eab1666a4d1b14948efe", "tag": "无", "lng": 115.993924, "id": "1100182", "name": "八达岭古长城", "lat": 40.355529, "level": 3}
{"address": "康庄镇小曹营老房场", "uid": "50fb64ffddf90523e8f85386", "tag": "运动健身;体育场馆", "lng": 115.866594, "id": "1100183", "name": "北京阳光时代马球俱乐部", "lat": 40.409569, "level": 3}
{"address": "张山营镇胡家营村东", "uid": "b9e5d0b875c27ec181a12ee2", "tag": "旅游景点;风景区", "lng": 115.823433, "id": "1100184", "name": "辉煌国际会议度假区", "lat": 40.475768, "level": 3}
{"address": "天安门东侧", "uid": "fe72ca0cebe8d75e95f08ca2", "subway": [{"distance_walking": 820, "line": "地铁1号线", "duration_walking": 654, "lng": "116.407851", "lat": "39.91408", "name": "天安门东"}], "tag": "文化传媒;文化宫", "lng": 116.406653, "id": "1100185", "name": "北京市劳动人民文化宫", "lat": 39.917325, "level": 2}
{"address": "光明路乙12号", "uid": "531be4a016388001c9fa5f83", "subway": [{"distance_walking": 1543, "line": "地铁7号线", "duration_walking": 1230, "lng": "116.440943", "lat": "39.899616", "name": "广渠门内"}], "tag": "购物;其他", "lng": 116.441359, "id": "1100186", "name": "京城百工坊非遗国礼中心", "lat": 39.88974, "level": 2}
{"address": "阜成门内大街131号", "uid": "de8a12bf4f34f6a3d3ff233f", "subway": [{"distance_walking": 646, "line": "北京市西城区", "duration_walking": 515, "lng": "116.379305", "lat": "39.929133", "name": "地铁西四站"}], "tag": "旅游景点;文物古迹", "lng": 116.373977, "id": "1100187", "name": "历代帝王庙", "lat": 39.930729, "level": 2}
{"address": "北安河乡境内", "uid": "d5f93c0e66f2ab5cecdfcaa9", "tag": "旅游景点;风景区", "lng": 116.089265, "id": "1100188", "name": "阳台山自然风景区", "lat": 40.076181, "level": 2}
{"address": "海淀区苏家坨镇稻香湖路28号", "uid": "62e32d476be0c4b22fb17ef1", "tag": "旅游景点;公园", "lng": 116.188155, "id": "1100189", "name": "稻香湖公园", "lat": 40.098775, "level": 2}
{"address": "南三环路3号", "uid": "8606df55d5fe8885fbf0cb00", "subway": [{"distance_walking": 858, "line": "开阳路与马家堡西路交叉口南200米", "duration_walking": 684, "lng": "116.377599", "lat": "39.859576", "name": "地铁马家堡站"}], "tag": "旅游景点;公园", "lng": 116.382144, "id": "1100190", "name": "万芳亭", "lat": 39.864686, "level": 2}
{"address": "广安门外莲花池48号", "uid": "edbd1d7e2b8a8760471a3244", "subway": [{"distance_walking": 1122, "line": "地铁9号线", "duration_walking": 895, "lng": "116.321463", "lat": "39.89278", "name": "六里桥东"}], "tag": "旅游景点;公园", "lng": 116.321321, "id": "1100191", "name": "莲花池公园", "lat": 39.897897, "level": 2}
{"address": "西四环南路60号", "uid": "2a13bcb5a7c25b96ca09f029", "subway": [{"distance_walking": 919, "line": "地铁14号线西段;地铁9号线", "duration_walking": 733, "lng": "116.300553", "lat": "39.873015", "name": "七里庄"}], "tag": "旅游景点;公园", "lng": 116.29204, "id": "1100192", "name": "丰台花园", "lat": 39.870031, "level": 2}
{"address": "清水镇小龙门林场", "uid": "4501344c93e465375bf6bea0", "tag": "旅游景点;公园", "lng": 115.451332, "id": "1100193", "name": "小龙门国家森林公园", "lat": 39.989818, "level": 2}
{"address": "清水镇齐家庄村", "uid": "982dc175fd3bdba643afe652", "tag": "出入口;门", "lng": 115.64586, "id": "1100194", "name": "百花山自然风景区(东门)", "lat": 39.846105, "level": 2}
{"address": "清水镇江水河村", "uid": "c4e0013f68d6ab9097ec845e", "tag": "旅游景点;风景区", "lng": 115.508615, "id": "1100195", "name": "灵山自然风景区", "lat": 40.045921, "level": 2}
{"address": "门头沟区王平镇瓜草地", "uid": "df507be39facaf9f00ff2d55", "tag": "旅游景点;风景区", "lng": 115.981975, "id": "1100196", "name": "瓜草地风景区", "lat": 39.954282, "level": 2}
{"address": "佛子庄乡下英水村", "uid": "b3aa435d4237860b157643c7", "tag": "旅游景点;风景区", "lng": 115.905082, "id": "1100197", "name": "银狐洞", "lat": 39.804956, "level": 2}
{"address": "霞云岭乡堂上村", "uid": "c8b5cdef6f025a03130daac4", "tag": "旅游景点;文物古迹", "lng": 115.591178, "id": "1100198", "name": "没有共产党就没有新中国纪念馆", "lat": 39.786848, "level": 2}
{"address": "大石窝镇石窝村", "uid": "e40addc96bc728684354d7e5", "tag": "文化传媒;美术馆", "lng": 115.828782, "id": "1100199", "name": "中华石雕艺术园", "lat": 39.556304, "level": 2}
{"address": "窦店镇窦店村", "uid": "7f0a230a3cc95e9e3be4a68d", "tag": "旅游景点;文物古迹", "lng": 116.072423, "id": "1100200", "name": "窦店清真寺", "lat": 39.644184, "level": 2}
{"address": "周口店镇黄山店村", "uid": "8cbb1e3224a327870f0a70da", "tag": "旅游景点;风景区", "lng": 115.851844, "id": "1100201", "name": "周口店坡峰岭风景区", "lat": 39.702145, "level": 2}
{"address": "长岭镇大岭沟村", "uid": "c21db9e576c6578300ff2d66", "tag": "旅游景点;风景区", "lng": 116.231646, "id": "1100202", "name": "大岭沟风景区", "lat": 40.375906, "level": 2}
{"address": "阳坊镇北京后花园风景区", "uid": "3810c879167b2c8b9c09f76a", "tag": "旅游景点;风景区", "lng": 116.105136, "id": "1100203", "name": "北京后花园旅游风景区", "lat": 40.133596, "level": 2}
{"address": "南口镇虎峪村北", "uid": "e1423666615dfc54a8f72908", "tag": "旅游景点;风景区", "lng": 116.113194, "id": "1100204", "name": "虎峪自然风景区", "lat": 40.331262, "level": 2}
{"address": "十三陵镇锥臼峪村双龙山风景区", "uid": "e586e2ed675997cb1ff74da4", "tag": "交通设施;停车场", "lng": 116.169496, "id": "1100205", "name": "北京十三陵双龙山森林公园-停车场", "lat": 40.355114, "level": 2}
{"address": "十三陵镇西山口村", "uid": "11025ef6f196a922d3ff23cb", "subway": [{"distance_walking": 0, "line": "昌平线", "duration_walking": 0, "lng": "116.201918", "lat": "40.250532", "name": "昌平西山口(地铁站)"}], "tag": "休闲娱乐;农家院", "lng": 116.207405, "id": "1100206", "name": "北京奥林射击场", "lat": 40.255026, "level": 2}
{"address": "十三陵水库左岸蟒山山顶", "uid": "5508504dff6d2acbc7f02566", "tag": "旅游景点;风景区", "lng": 116.299803, "id": "1100207", "name": "天池风景区", "lat": 40.272403, "level": 2}
{"address": "安定镇高店村", "uid": "3ab840af75a4bcc17c29bd41", "tag": "旅游景点;其他", "lng": 116.551227, "id": "1100208", "name": "御林古桑园", "lat": 39.640395, "level": 2}
{"address": "黄松峪乡黑豆峪村", "uid": "c8b5cdef6f0a5a03130daacc", "tag": "旅游景点;风景区", "lng": 117.261254, "id": "1100209", "name": "平谷湖洞水风景区", "lat": 40.277996, "level": 2}
{"address": "大华山镇小峪子村", "uid": "cde9e2c7383140b4e81e97cc", "tag": "自然地物;山峰", "lng": 117.023155, "id": "1100210", "name": "老象峰", "lat": 40.318323, "level": 2}
{"address": "熊儿寨乡老泉口村127号", "uid": "7ea4d472a9649f7b4afd3f95", "tag": "旅游景点;公园", "lng": 117.140289, "id": "1100211", "name": "京东老泉山野公园", "lat": 40.305415, "level": 2}
{"address": "大华山镇小峪子村南", "uid": "36795ef56fd0c002c26c142c", "tag": "交通设施;充电站", "lng": 117.032993, "id": "1100212", "name": "国家电网充电站(丛海逸园)", "lat": 40.262539, "level": 2}
{"address": "雁栖镇石片村北", "uid": "4ce10ce698b268dc441a323c", "tag": "交通设施;停车场", "lng": 116.629271, "id": "1100213", "name": "神堂峪自然风景区-停车场", "lat": 40.455163, "level": 2}
{"address": "怀北镇椴树岭村", "uid": "2d73cb230af63b08eb12e41d", "tag": "生活服务;售票处", "lng": 116.668266, "id": "1100214", "name": "百泉山风景区售票处", "lat": 40.500437, "level": 2}
{"address": "新城子镇遥桥峪村", "uid": "925c550f16f2f9b25b3ac895", "tag": "旅游景点;风景区", "lng": 117.389778, "id": "1100215", "name": "云岫谷游猎自然风景区", "lat": 40.638535, "level": 2}
{"address": "西田各庄镇牛盆峪村", "uid": "a74481d69602be46f403b89a", "tag": "旅游景点;风景区", "lng": 116.732418, "id": "1100216", "name": "云蒙三峪自然风景区", "lat": 40.496338, "level": 2}
{"address": "古北口镇古北口村", "uid": "6e05893e6c56c1de82a12ef2", "tag": "旅游景点;博物馆", "lng": 117.172171, "id": "1100217", "name": "古北口文化文物旅游区", "lat": 40.689726, "level": 2}
{"address": "石城镇", "uid": "fb2973d6236db891725e80dc", "tag": "交通设施;停车场", "lng": 116.820608, "id": "1100218", "name": "北京云蒙山长城遗址公园-地上停车场", "lat": 40.540439, "level": 2}
{"address": "古北口镇汤河村", "uid": "74c1bfe8c20d26d92efaa789", "tag": "生活服务;售票处", "lng": 117.219244, "id": "1100219", "name": "紫海香堤香草艺术庄园售票处", "lat": 40.659015, "level": 2}
{"address": "石城镇张家坟村柳棵峪", "uid": "b81f08eec3941350b54f5446", "tag": "旅游景点;其他", "lng": 116.791379, "id": "1100220", "name": "京都第一瀑", "lat": 40.597997, "level": 2}
{"address": "经济开发区清源路1号", "uid": "6835e3a78501664ee2110392", "tag": "公司企业;厂矿", "lng": 116.809409, "id": "1100221", "name": "伊利集团北京乳品厂", "lat": 40.35493, "level": 2}
{"address": "穆家峪镇辛安庄村", "uid": "93a7941931338954acee7af9", "tag": "旅游景点;风景区", "lng": 116.983037, "id": "1100222", "name": "辛安庄鸡鸣山景区", "lat": 40.406953, "level": 2}
{"address": "石城镇柳棵峪村", "uid": "f200f6bc243bb3c643afe64f", "tag": "交通设施;停车场", "lng": 116.792584, "id": "1100223", "name": "北京天门山旅游风景区-地上停车场", "lat": 40.598705, "level": 2}
{"address": "张山营镇玉皇庙村玉海公路1号", "uid": "f4460918b65d6516b01e3691", "tag": "旅游景点;风景区", "lng": 115.906993, "id": "1100224", "name": "玉渡山风景区", "lat": 40.534776, "level": 2}
{"address": "大榆树镇大瑜树村258号", "uid": "7d1a7cc6f3a3492448cc4ac7", "tag": "旅游景点;植物园", "lng": 116.074918, "id": "1100225", "name": "绿富隆观光园", "lat": 40.55201, "level": 2}
{"address": "大华山镇挂甲峪村", "uid": "8ff899ba1caf37815b109378", "tag": "行政地标;村庄", "lng": 117.112288, "id": "1100226", "name": "挂甲峪村", "lat": 40.272864, "level": 1}
{"address": "大华山镇泉水峪村", "uid": "de48f511aef5c28848cc4aa7", "tag": "旅游景点;风景区", "lng": 117.107074, "id": "1100227", "name": "北京胜泉亲水湾旅游景区", "lat": 40.303689, "level": 1}
{"address": "大科庄乡政府", "uid": "fc5788ea82865968a5da393c", "tag": "生活服务;售票处", "lng": 116.279303, "id": "1100228", "name": "莲花山森林公园售票处", "lat": 40.442354, "level": 1}
{"address": "井庄镇柳沟村", "uid": "a12baa40e231d856e856fa2a", "tag": "旅游景点;风景区", "lng": 115.933647, "id": "1100229", "name": "玉渡山风景区-神奇野山峡", "lat": 40.526249, "level": 1}
{"address": "北京市海淀区上庄镇", "uid": "ff6544512639b785b23c8154", "subway": [{"distance_walking": 300, "line": "地铁4号线大兴线", "duration_walking": 240, "lng": "116.328329", "lat": "39.692307", "name": "生物医药基地"}], "tag": "教育培训;亲子教育", "lng": 116.328176, "id": "1100230", "name": "魔法森林", "lat": 39.695025, "level": 1}
